[{"team":"Oklahoma City Thunder","2019-20":"$133,820,365","TM":"OKC","city":"Oklahoma City, Oklahoma","latitude":"35.463333","longitude":" -97.515","coordinates":"35.463333, -97.515","PER_AVG":11.075,"2020-21":null,"PER AVG":null,"arena":null},{"team":"Cleveland Cavaliers","2019-20":"$130,950,319","TM":"CLE","city":"Cleveland, Ohio","latitude":"41.496389","longitude":" -81.688056","coordinates":"41.496389, -81.688056","PER_AVG":11.2928571429,"2020-21":null,"PER AVG":null,"arena":null},{"team":"Utah Jazz","2019-20":"$121,899,425","TM":"UTA","city":"Salt Lake City, Utah","latitude":"40.768333","longitude":" -111.901111","coordinates":"40.768333, -111.901111","PER_AVG":11.91875,"2020-21":null,"PER AVG":null,"arena":null},{"team":"Charlotte Hornets","2019-20":"$124,399,147","TM":"CHO","city":"Charlotte, North Carolina","latitude":"35.225","longitude":" -80.839167","coordinates":"35.225, -80.839167","PER_AVG":11.9571428571,"2020-21":null,"PER AVG":null,"arena":null},{"team":"Golden State Warriors","2019-20":"$131,527,930","TM":"GSW","city":"San Francisco, California","latitude":"37.768056","longitude":" -122.3875","coordinates":"37.768056, -122.3875","PER_AVG":12.0058823529,"2020-21":null,"PER AVG":null,"arena":null},{"team":"Houston Rockets","2019-20":"$130,564,936","TM":"HOU","city":"Houston, Texas","latitude":"29.750833","longitude":" -95.362222","coordinates":"29.750833, -95.362222","PER_AVG":12.0263157895,"2020-21":null,"PER AVG":null,"arena":null},{"team":"Atlanta Hawks","2019-20":"$114,377,720","TM":"ATL","city":"Atlanta, Georgia","latitude":"33.757222","longitude":" -84.396389","coordinates":"33.757222, -84.396389","PER_AVG":12.0266666667,"2020-21":null,"PER AVG":null,"arena":null},{"team":"Detroit Pistons","2019-20":"$130,628,835","TM":"DET","city":"Detroit, Michigan","latitude":"42.696944","longitude":" -83.245556","coordinates":"42.696944, -83.245556","PER_AVG":12.26875,"2020-21":null,"PER AVG":null,"arena":null},{"team":"New York Knicks","2019-20":"$111,160,637","TM":"NYK","city":"New York City, New York","latitude":"40.750556","longitude":" -73.993611","coordinates":"40.750556, -73.993611","PER_AVG":12.3285714286,"2020-21":null,"PER AVG":null,"arena":null},{"team":"Washington Wizards","2019-20":"$131,014,920","TM":"WAS","city":"Washington, D.C.","latitude":"38.898056","longitude":" -77.020833","coordinates":"38.898056, -77.020833","PER_AVG":12.5333333333,"2020-21":null,"PER AVG":null,"arena":null},{"team":"Minnesota Timberwolves","2019-20":"$132,512,645","TM":"MIN","city":"Minneapolis, Minnesota","latitude":"44.979444","longitude":" -93.276111","coordinates":"44.979444, -93.276111","PER_AVG":12.5461538462,"2020-21":null,"PER AVG":null,"arena":null},{"team":"Orlando Magic","2019-20":"$133,220,515","TM":"ORL","city":"Orlando, Florida","latitude":"28.539167","longitude":" -81.383611","coordinates":"28.539167, -81.383611","PER_AVG":12.63125,"2020-21":null,"PER AVG":null,"arena":null},{"team":"Toronto Raptors","2019-20":"$123,108,207","TM":"TOR","city":"Toronto, Ontario","latitude":"43.643333","longitude":" -79.379167","coordinates":"43.643333, -79.379167","PER_AVG":12.725,"2020-21":null,"PER AVG":null,"arena":null},{"team":"Phoenix Suns","2019-20":"$121,092,786","TM":"PHO","city":"Phoenix, Arizona","latitude":"33.445833","longitude":" -112.071389","coordinates":"33.445833, -112.071389","PER_AVG":13.0733333333,"2020-21":null,"PER AVG":null,"arena":null},{"team":"Los Angeles Lakers","2019-20":"$125,399,527","TM":"LAL","city":"Los Angeles, California","latitude":"34.043056","longitude":" -118.267222","coordinates":"34.043056, -118.267222","PER_AVG":13.2125,"2020-21":null,"PER AVG":null,"arena":null},{"team":"Portland Trail Blazers","2019-20":"$138,929,290","TM":"POR","city":"Portland, Oregon","latitude":"45.531667","longitude":" -122.666667","coordinates":"45.531667, -122.666667","PER_AVG":13.5714285714,"2020-21":null,"PER AVG":null,"arena":null},{"team":"Brooklyn Nets","2019-20":"$126,995,939","TM":"BRK","city":"New York City, New York","latitude":"40.68265","longitude":" -73.974689","coordinates":"40.68265, -73.974689","PER_AVG":13.635,"2020-21":null,"PER AVG":null,"arena":null},{"team":"Miami Heat","2019-20":"$134,341,791","TM":"MIA","city":"Miami, Florida","latitude":"25.781389","longitude":" -80.188056","coordinates":"25.781389, -80.188056","PER_AVG":13.7666666667,"2020-21":null,"PER AVG":null,"arena":null},{"team":"Philadelphia 76ers","2019-20":"$130,273,147","TM":"PHI","city":"Philadelphia, Pennsylvania","latitude":"39.901111","longitude":" -75.171944","coordinates":"39.901111, -75.171944","PER_AVG":14.1214285714,"2020-21":null,"PER AVG":null,"arena":null},{"team":"Indiana Pacers","2019-20":"$114,708,526","TM":"IND","city":"Indianapolis, Indiana","latitude":"39.763889","longitude":" -86.155556","coordinates":"39.763889, -86.155556","PER_AVG":14.1666666667,"2020-21":null,"PER AVG":null,"arena":null},{"team":"Milwaukee Bucks","2019-20":"$135,025,925","TM":"MIL","city":"Milwaukee, Wisconsin","latitude":"43.043611","longitude":" -87.916944","coordinates":"43.043611, -87.916944","PER_AVG":14.2466666667,"2020-21":null,"PER AVG":null,"arena":null},{"team":"New Orleans Pelicans","2019-20":"$117,509,036","TM":"NOP","city":"New Orleans, Louisiana","latitude":"29.948889","longitude":" -90.081944","coordinates":"29.948889, -90.081944","PER_AVG":14.5066666667,"2020-21":null,"PER AVG":null,"arena":null},{"team":"Boston Celtics","2019-20":"$121,225,607","TM":"BOS","city":"Boston, Massachusetts","latitude":"42.366303","longitude":" -71.062228","coordinates":"42.366303, -71.062228","PER_AVG":14.6066666667,"2020-21":null,"PER AVG":null,"arena":null},{"team":"Denver Nuggets","2019-20":"$130,946,208","TM":"DEN","city":"Denver, Colorado","latitude":"39.748611","longitude":" -105.0075","coordinates":"39.748611, -105.0075","PER_AVG":14.86,"2020-21":null,"PER AVG":null,"arena":null},{"team":"Los Angeles Clippers","2019-20":"$133,763,833","TM":"LAC","city":"Los Angeles, California","latitude":"34.043056","longitude":" -118.267222","coordinates":"34.043056, -118.267222","PER_AVG":14.8666666667,"2020-21":null,"PER AVG":null,"arena":null},{"team":"Memphis Grizzlies","2019-20":"$128,882,901","TM":"MEM","city":"Memphis, Tennessee","latitude":"35.138333","longitude":" -90.050556","coordinates":"35.138333, -90.050556","PER_AVG":14.9714285714,"2020-21":null,"PER AVG":null,"arena":null},{"team":"Chicago Bulls","2019-20":"$114,665,634","TM":"CHI","city":"Chicago, Illinois","latitude":"41.880556","longitude":" -87.674167","coordinates":"41.880556, -87.674167","PER_AVG":14.9933333333,"2020-21":null,"PER AVG":null,"arena":null},{"team":"Sacramento Kings","2019-20":"$117,679,921","TM":"SAC","city":"Sacramento, California","latitude":"38.649167","longitude":" -121.518056","coordinates":"38.649167, -121.518056","PER_AVG":15.3333333333,"2020-21":null,"PER AVG":null,"arena":null},{"team":"Dallas Mavericks","2019-20":"$122,097,076","TM":"DAL","city":"Dallas, Texas","latitude":"32.790556","longitude":" -96.810278","coordinates":"32.790556, -96.810278","PER_AVG":15.525,"2020-21":null,"PER AVG":null,"arena":null},{"team":"San Antonio Spurs","2019-20":"$123,420,246","TM":"SAS","city":"San Antonio, Texas","latitude":"29.426944","longitude":" -98.4375","coordinates":"29.426944, -98.4375","PER_AVG":16.0466666667,"2020-21":null,"PER AVG":null,"arena":null},{"team":"Oklahoma City Thunder","2019-20":null,"TM":"OKC","city":"Oklahoma City, Oklahoma","latitude":"35.463333","longitude":" -97.515","coordinates":"35.463333, -97.515","PER_AVG":null,"2020-21":"$67,537,657","PER AVG":11.075,"arena":"Chesapeake Energy Arena"},{"team":"Cleveland Cavaliers","2019-20":null,"TM":"CLE","city":"Cleveland, Ohio","latitude":"41.496389","longitude":" -81.688056","coordinates":"41.496389, -81.688056","PER_AVG":null,"2020-21":"$124,083,952","PER AVG":11.2928571429,"arena":"Rocket Mortgage FieldHouse"},{"team":"Utah Jazz","2019-20":null,"TM":"UTA","city":"Salt Lake City, Utah","latitude":"40.768333","longitude":" -111.901111","coordinates":"40.768333, -111.901111","PER_AVG":null,"2020-21":"$131,427,094","PER AVG":11.91875,"arena":"Vivint Smart Home Arena"},{"team":"Charlotte Hornets","2019-20":null,"TM":"CHO","city":"Charlotte, North Carolina","latitude":"35.225","longitude":" -80.839167","coordinates":"35.225, -80.839167","PER_AVG":null,"2020-21":"$121,989,128","PER AVG":11.9571428571,"arena":"Spectrum Center"},{"team":"Golden State Warriors","2019-20":null,"TM":"GSW","city":"San Francisco, California","latitude":"37.768056","longitude":" -122.3875","coordinates":"37.768056, -122.3875","PER_AVG":null,"2020-21":"$175,042,071","PER AVG":12.0058823529,"arena":"Chase Center"},{"team":"Houston Rockets","2019-20":null,"TM":"HOU","city":"Houston, Texas","latitude":"29.750833","longitude":" -95.362222","coordinates":"29.750833, -95.362222","PER_AVG":null,"2020-21":"$142,267,551","PER AVG":12.0263157895,"arena":"Toyota Center"},{"team":"Atlanta Hawks","2019-20":null,"TM":"ATL","city":"Atlanta, Georgia","latitude":"33.757222","longitude":" -84.396389","coordinates":"33.757222, -84.396389","PER_AVG":null,"2020-21":"$102,325,554","PER AVG":12.0266666667,"arena":"State Farm Arena"},{"team":"Detroit Pistons","2019-20":null,"TM":"DET","city":"Detroit, Michigan","latitude":"42.696944","longitude":" -83.245556","coordinates":"42.696944, -83.245556","PER_AVG":null,"2020-21":"$132,668,175","PER AVG":12.26875,"arena":"Little Caesars Arena"},{"team":"New York Knicks","2019-20":null,"TM":"NYK","city":"New York City, New York","latitude":"40.750556","longitude":" -73.993611","coordinates":"40.750556, -73.993611","PER_AVG":null,"2020-21":"$88,745,438","PER AVG":12.3285714286,"arena":"Madison Square Garden"},{"team":"Washington Wizards","2019-20":null,"TM":"WAS","city":"Washington, D.C.","latitude":"38.898056","longitude":" -77.020833","coordinates":"38.898056, -77.020833","PER_AVG":null,"2020-21":"$128,562,684","PER AVG":12.5333333333,"arena":"Capital One Arena"},{"team":"Minnesota Timberwolves","2019-20":null,"TM":"MIN","city":"Minneapolis, Minnesota","latitude":"44.979444","longitude":" -93.276111","coordinates":"44.979444, -93.276111","PER_AVG":null,"2020-21":"$129,527,263","PER AVG":12.5461538462,"arena":"Target Center"},{"team":"Orlando Magic","2019-20":null,"TM":"ORL","city":"Orlando, Florida","latitude":"28.539167","longitude":" -81.383611","coordinates":"28.539167, -81.383611","PER_AVG":null,"2020-21":"$136,544,492","PER AVG":12.63125,"arena":"Amway Center"},{"team":"Toronto Raptors","2019-20":null,"TM":"TOR","city":"Toronto, Ontario","latitude":"43.643333","longitude":" -79.379167","coordinates":"43.643333, -79.379167","PER_AVG":null,"2020-21":"$128,481,711","PER AVG":12.725,"arena":"Scotiabank Arena"},{"team":"Phoenix Suns","2019-20":null,"TM":"PHO","city":"Phoenix, Arizona","latitude":"33.445833","longitude":" -112.071389","coordinates":"33.445833, -112.071389","PER_AVG":null,"2020-21":"$124,614,903","PER AVG":13.0733333333,"arena":"PHX Arena"},{"team":"Los Angeles Lakers","2019-20":null,"TM":"LAL","city":"Los Angeles, California","latitude":"34.043056","longitude":" -118.267222","coordinates":"34.043056, -118.267222","PER_AVG":null,"2020-21":"$135,459,639","PER AVG":13.2125,"arena":"Staples Center"},{"team":"Portland Trail Blazers","2019-20":null,"TM":"POR","city":"Portland, Oregon","latitude":"45.531667","longitude":" -122.666667","coordinates":"45.531667, -122.666667","PER_AVG":null,"2020-21":"$128,308,277","PER AVG":13.5714285714,"arena":"Moda Center"},{"team":"Brooklyn Nets","2019-20":null,"TM":"BRK","city":"New York City, New York","latitude":"40.68265","longitude":" -73.974689","coordinates":"40.68265, -73.974689","PER_AVG":null,"2020-21":"$157,814,503","PER AVG":13.635,"arena":"Barclays Center"},{"team":"Miami Heat","2019-20":null,"TM":"MIA","city":"Miami, Florida","latitude":"25.781389","longitude":" -80.188056","coordinates":"25.781389, -80.188056","PER_AVG":null,"2020-21":"$124,604,440","PER AVG":13.7666666667,"arena":"American Airlines Arena"},{"team":"Philadelphia 76ers","2019-20":null,"TM":"PHI","city":"Philadelphia, Pennsylvania","latitude":"39.901111","longitude":" -75.171944","coordinates":"39.901111, -75.171944","PER_AVG":null,"2020-21":"$175,166,388","PER AVG":14.1214285714,"arena":"Wells Fargo Center"},{"team":"Indiana Pacers","2019-20":null,"TM":"IND","city":"Indianapolis, Indiana","latitude":"39.763889","longitude":" -86.155556","coordinates":"39.763889, -86.155556","PER_AVG":null,"2020-21":"$130,246,338","PER AVG":14.1666666667,"arena":"Bankers Life Fieldhouse"},{"team":"Milwaukee Bucks","2019-20":null,"TM":"MIL","city":"Milwaukee, Wisconsin","latitude":"43.043611","longitude":" -87.916944","coordinates":"43.043611, -87.916944","PER_AVG":null,"2020-21":"$140,306,680","PER AVG":14.2466666667,"arena":"Fiserv Forum"},{"team":"New Orleans Pelicans","2019-20":null,"TM":"NOP","city":"New Orleans, Louisiana","latitude":"29.948889","longitude":" -90.081944","coordinates":"29.948889, -90.081944","PER_AVG":null,"2020-21":"$104,760,419","PER AVG":14.5066666667,"arena":"Smoothie King Center"},{"team":"Boston Celtics","2019-20":null,"TM":"BOS","city":"Boston, Massachusetts","latitude":"42.366303","longitude":" -71.062228","coordinates":"42.366303, -71.062228","PER_AVG":null,"2020-21":"$117,111,401","PER AVG":14.6066666667,"arena":"TD Garden"},{"team":"Denver Nuggets","2019-20":null,"TM":"DEN","city":"Denver, Colorado","latitude":"39.748611","longitude":" -105.0075","coordinates":"39.748611, -105.0075","PER_AVG":null,"2020-21":"$125,885,711","PER AVG":14.86,"arena":"Ball Arena"},{"team":"Los Angeles Clippers","2019-20":null,"TM":"LAC","city":"Los Angeles, California","latitude":"34.043056","longitude":" -118.267222","coordinates":"34.043056, -118.267222","PER_AVG":null,"2020-21":"$141,490,310","PER AVG":14.8666666667,"arena":"Staples Center"},{"team":"Memphis Grizzlies","2019-20":null,"TM":"MEM","city":"Memphis, Tennessee","latitude":"35.138333","longitude":" -90.050556","coordinates":"35.138333, -90.050556","PER_AVG":null,"2020-21":"$128,519,246","PER AVG":14.9714285714,"arena":"FedExForum"},{"team":"Chicago Bulls","2019-20":null,"TM":"CHI","city":"Chicago, Illinois","latitude":"41.880556","longitude":" -87.674167","coordinates":"41.880556, -87.674167","PER_AVG":null,"2020-21":"$126,035,037","PER AVG":14.9933333333,"arena":"United Center"},{"team":"Sacramento Kings","2019-20":null,"TM":"SAC","city":"Sacramento, California","latitude":"38.649167","longitude":" -121.518056","coordinates":"38.649167, -121.518056","PER_AVG":null,"2020-21":"$112,113,931","PER AVG":15.3333333333,"arena":"Golden 1 Center"},{"team":"Dallas Mavericks","2019-20":null,"TM":"DAL","city":"Dallas, Texas","latitude":"32.790556","longitude":" -96.810278","coordinates":"32.790556, -96.810278","PER_AVG":null,"2020-21":"$126,463,122","PER AVG":15.525,"arena":"American Airlines Center"},{"team":"San Antonio Spurs","2019-20":null,"TM":"SAS","city":"San Antonio, Texas","latitude":"29.426944","longitude":" -98.4375","coordinates":"29.426944, -98.4375","PER_AVG":null,"2020-21":"$133,350,146","PER AVG":16.0466666667,"arena":"AT&T Center"},{"team":"Oklahoma City Thunder","2019-20":null,"TM":"OKC","city":"Oklahoma City, Oklahoma","latitude":"35.463333","longitude":" -97.515","coordinates":"35.463333, -97.515","PER_AVG":null,"2020-21":"$67,537,657","PER AVG":11.075,"arena":"Chesapeake Energy Arena"},{"team":"Cleveland Cavaliers","2019-20":null,"TM":"CLE","city":"Cleveland, Ohio","latitude":"41.496389","longitude":" -81.688056","coordinates":"41.496389, -81.688056","PER_AVG":null,"2020-21":"$124,083,952","PER AVG":11.2928571429,"arena":"Rocket Mortgage FieldHouse"},{"team":"Utah Jazz","2019-20":null,"TM":"UTA","city":"Salt Lake City, Utah","latitude":"40.768333","longitude":" -111.901111","coordinates":"40.768333, -111.901111","PER_AVG":null,"2020-21":"$131,427,094","PER AVG":11.91875,"arena":"Vivint Smart Home Arena"},{"team":"Charlotte Hornets","2019-20":null,"TM":"CHO","city":"Charlotte, North Carolina","latitude":"35.225","longitude":" -80.839167","coordinates":"35.225, -80.839167","PER_AVG":null,"2020-21":"$121,989,128","PER AVG":11.9571428571,"arena":"Spectrum Center"},{"team":"Golden State Warriors","2019-20":null,"TM":"GSW","city":"San Francisco, California","latitude":"37.768056","longitude":" -122.3875","coordinates":"37.768056, -122.3875","PER_AVG":null,"2020-21":"$175,042,071","PER AVG":12.0058823529,"arena":"Chase Center"},{"team":"Houston Rockets","2019-20":null,"TM":"HOU","city":"Houston, Texas","latitude":"29.750833","longitude":" -95.362222","coordinates":"29.750833, -95.362222","PER_AVG":null,"2020-21":"$142,267,551","PER AVG":12.0263157895,"arena":"Toyota Center"},{"team":"Atlanta Hawks","2019-20":null,"TM":"ATL","city":"Atlanta, Georgia","latitude":"33.757222","longitude":" -84.396389","coordinates":"33.757222, -84.396389","PER_AVG":null,"2020-21":"$102,325,554","PER AVG":12.0266666667,"arena":"State Farm Arena"},{"team":"Detroit Pistons","2019-20":null,"TM":"DET","city":"Detroit, Michigan","latitude":"42.696944","longitude":" -83.245556","coordinates":"42.696944, -83.245556","PER_AVG":null,"2020-21":"$132,668,175","PER AVG":12.26875,"arena":"Little Caesars Arena"},{"team":"New York Knicks","2019-20":null,"TM":"NYK","city":"New York City, New York","latitude":"40.750556","longitude":" -73.993611","coordinates":"40.750556, -73.993611","PER_AVG":null,"2020-21":"$88,745,438","PER AVG":12.3285714286,"arena":"Madison Square Garden"},{"team":"Washington Wizards","2019-20":null,"TM":"WAS","city":"Washington, D.C.","latitude":"38.898056","longitude":" -77.020833","coordinates":"38.898056, -77.020833","PER_AVG":null,"2020-21":"$128,562,684","PER AVG":12.5333333333,"arena":"Capital One Arena"},{"team":"Minnesota Timberwolves","2019-20":null,"TM":"MIN","city":"Minneapolis, Minnesota","latitude":"44.979444","longitude":" -93.276111","coordinates":"44.979444, -93.276111","PER_AVG":null,"2020-21":"$129,527,263","PER AVG":12.5461538462,"arena":"Target Center"},{"team":"Orlando Magic","2019-20":null,"TM":"ORL","city":"Orlando, Florida","latitude":"28.539167","longitude":" -81.383611","coordinates":"28.539167, -81.383611","PER_AVG":null,"2020-21":"$136,544,492","PER AVG":12.63125,"arena":"Amway Center"},{"team":"Toronto Raptors","2019-20":null,"TM":"TOR","city":"Toronto, Ontario","latitude":"43.643333","longitude":" -79.379167","coordinates":"43.643333, -79.379167","PER_AVG":null,"2020-21":"$128,481,711","PER AVG":12.725,"arena":"Scotiabank Arena"},{"team":"Phoenix Suns","2019-20":null,"TM":"PHO","city":"Phoenix, Arizona","latitude":"33.445833","longitude":" -112.071389","coordinates":"33.445833, -112.071389","PER_AVG":null,"2020-21":"$124,614,903","PER AVG":13.0733333333,"arena":"PHX Arena"},{"team":"Los Angeles Lakers","2019-20":null,"TM":"LAL","city":"Los Angeles, California","latitude":"34.043056","longitude":" -118.267222","coordinates":"34.043056, -118.267222","PER_AVG":null,"2020-21":"$135,459,639","PER AVG":13.2125,"arena":"Staples Center"},{"team":"Portland Trail Blazers","2019-20":null,"TM":"POR","city":"Portland, Oregon","latitude":"45.531667","longitude":" -122.666667","coordinates":"45.531667, -122.666667","PER_AVG":null,"2020-21":"$128,308,277","PER AVG":13.5714285714,"arena":"Moda Center"},{"team":"Brooklyn Nets","2019-20":null,"TM":"BRK","city":"New York City, New York","latitude":"40.68265","longitude":" -73.974689","coordinates":"40.68265, -73.974689","PER_AVG":null,"2020-21":"$157,814,503","PER AVG":13.635,"arena":"Barclays Center"},{"team":"Miami Heat","2019-20":null,"TM":"MIA","city":"Miami, Florida","latitude":"25.781389","longitude":" -80.188056","coordinates":"25.781389, -80.188056","PER_AVG":null,"2020-21":"$124,604,440","PER AVG":13.7666666667,"arena":"American Airlines Arena"},{"team":"Philadelphia 76ers","2019-20":null,"TM":"PHI","city":"Philadelphia, Pennsylvania","latitude":"39.901111","longitude":" -75.171944","coordinates":"39.901111, -75.171944","PER_AVG":null,"2020-21":"$175,166,388","PER AVG":14.1214285714,"arena":"Wells Fargo Center"},{"team":"Indiana Pacers","2019-20":null,"TM":"IND","city":"Indianapolis, Indiana","latitude":"39.763889","longitude":" -86.155556","coordinates":"39.763889, -86.155556","PER_AVG":null,"2020-21":"$130,246,338","PER AVG":14.1666666667,"arena":"Bankers Life Fieldhouse"},{"team":"Milwaukee Bucks","2019-20":null,"TM":"MIL","city":"Milwaukee, Wisconsin","latitude":"43.043611","longitude":" -87.916944","coordinates":"43.043611, -87.916944","PER_AVG":null,"2020-21":"$140,306,680","PER AVG":14.2466666667,"arena":"Fiserv Forum"},{"team":"New Orleans Pelicans","2019-20":null,"TM":"NOP","city":"New Orleans, Louisiana","latitude":"29.948889","longitude":" -90.081944","coordinates":"29.948889, -90.081944","PER_AVG":null,"2020-21":"$104,760,419","PER AVG":14.5066666667,"arena":"Smoothie King Center"},{"team":"Boston Celtics","2019-20":null,"TM":"BOS","city":"Boston, Massachusetts","latitude":"42.366303","longitude":" -71.062228","coordinates":"42.366303, -71.062228","PER_AVG":null,"2020-21":"$117,111,401","PER AVG":14.6066666667,"arena":"TD Garden"},{"team":"Denver Nuggets","2019-20":null,"TM":"DEN","city":"Denver, Colorado","latitude":"39.748611","longitude":" -105.0075","coordinates":"39.748611, -105.0075","PER_AVG":null,"2020-21":"$125,885,711","PER AVG":14.86,"arena":"Ball Arena"},{"team":"Los Angeles Clippers","2019-20":null,"TM":"LAC","city":"Los Angeles, California","latitude":"34.043056","longitude":" -118.267222","coordinates":"34.043056, -118.267222","PER_AVG":null,"2020-21":"$141,490,310","PER AVG":14.8666666667,"arena":"Staples Center"},{"team":"Memphis Grizzlies","2019-20":null,"TM":"MEM","city":"Memphis, Tennessee","latitude":"35.138333","longitude":" -90.050556","coordinates":"35.138333, -90.050556","PER_AVG":null,"2020-21":"$128,519,246","PER AVG":14.9714285714,"arena":"FedExForum"},{"team":"Chicago Bulls","2019-20":null,"TM":"CHI","city":"Chicago, Illinois","latitude":"41.880556","longitude":" -87.674167","coordinates":"41.880556, -87.674167","PER_AVG":null,"2020-21":"$126,035,037","PER AVG":14.9933333333,"arena":"United Center"},{"team":"Sacramento Kings","2019-20":null,"TM":"SAC","city":"Sacramento, California","latitude":"38.649167","longitude":" -121.518056","coordinates":"38.649167, -121.518056","PER_AVG":null,"2020-21":"$112,113,931","PER AVG":15.3333333333,"arena":"Golden 1 Center"},{"team":"Dallas Mavericks","2019-20":null,"TM":"DAL","city":"Dallas, Texas","latitude":"32.790556","longitude":" -96.810278","coordinates":"32.790556, -96.810278","PER_AVG":null,"2020-21":"$126,463,122","PER AVG":15.525,"arena":"American Airlines Center"},{"team":"San Antonio Spurs","2019-20":null,"TM":"SAS","city":"San Antonio, Texas","latitude":"29.426944","longitude":" -98.4375","coordinates":"29.426944, -98.4375","PER_AVG":null,"2020-21":"$133,350,146","PER AVG":16.0466666667,"arena":"AT&T Center"},{"team":"Oklahoma City Thunder","2019-20":null,"TM":"OKC","city":"Oklahoma City, Oklahoma","latitude":"35.463333","longitude":" -97.515","coordinates":"35.463333, -97.515","PER_AVG":null,"2020-21":"$69,537,657","PER AVG":11.075,"arena":"Chesapeake Energy Arena"},{"team":"Cleveland Cavaliers","2019-20":null,"TM":"CLE","city":"Cleveland, Ohio","latitude":"41.496389","longitude":" -81.688056","coordinates":"41.496389, -81.688056","PER_AVG":null,"2020-21":"$124,083,952","PER AVG":11.2928571429,"arena":"Rocket Mortgage FieldHouse"},{"team":"Utah Jazz","2019-20":null,"TM":"UTA","city":"Salt Lake City, Utah","latitude":"40.768333","longitude":" -111.901111","coordinates":"40.768333, -111.901111","PER_AVG":null,"2020-21":"$133,105,948","PER AVG":11.91875,"arena":"Vivint Smart Home Arena"},{"team":"Charlotte Hornets","2019-20":null,"TM":"CHO","city":"Charlotte, North Carolina","latitude":"35.225","longitude":" -80.839167","coordinates":"35.225, -80.839167","PER_AVG":null,"2020-21":"$121,989,128","PER AVG":11.9571428571,"arena":"Spectrum Center"},{"team":"Golden State Warriors","2019-20":null,"TM":"GSW","city":"San Francisco, California","latitude":"37.768056","longitude":" -122.3875","coordinates":"37.768056, -122.3875","PER_AVG":null,"2020-21":"$175,042,071","PER AVG":12.0058823529,"arena":"Chase Center"},{"team":"Houston Rockets","2019-20":null,"TM":"HOU","city":"Houston, Texas","latitude":"29.750833","longitude":" -95.362222","coordinates":"29.750833, -95.362222","PER_AVG":null,"2020-21":"$142,267,551","PER AVG":12.0263157895,"arena":"Toyota Center"},{"team":"Atlanta Hawks","2019-20":null,"TM":"ATL","city":"Atlanta, Georgia","latitude":"33.757222","longitude":" -84.396389","coordinates":"33.757222, -84.396389","PER_AVG":null,"2020-21":"$102,325,554","PER AVG":12.0266666667,"arena":"State Farm Arena"},{"team":"Detroit Pistons","2019-20":null,"TM":"DET","city":"Detroit, Michigan","latitude":"42.696944","longitude":" -83.245556","coordinates":"42.696944, -83.245556","PER_AVG":null,"2020-21":"$132,668,175","PER AVG":12.26875,"arena":"Little Caesars Arena"},{"team":"New York Knicks","2019-20":null,"TM":"NYK","city":"New York City, New York","latitude":"40.750556","longitude":" -73.993611","coordinates":"40.750556, -73.993611","PER_AVG":null,"2020-21":"$88,745,438","PER AVG":12.3285714286,"arena":"Madison Square Garden"},{"team":"Washington Wizards","2019-20":null,"TM":"WAS","city":"Washington, D.C.","latitude":"38.898056","longitude":" -77.020833","coordinates":"38.898056, -77.020833","PER_AVG":null,"2020-21":"$128,562,684","PER AVG":12.5333333333,"arena":"Capital One Arena"},{"team":"Minnesota Timberwolves","2019-20":null,"TM":"MIN","city":"Minneapolis, Minnesota","latitude":"44.979444","longitude":" -93.276111","coordinates":"44.979444, -93.276111","PER_AVG":null,"2020-21":"$129,527,263","PER AVG":12.5461538462,"arena":"Target Center"},{"team":"Orlando Magic","2019-20":null,"TM":"ORL","city":"Orlando, Florida","latitude":"28.539167","longitude":" -81.383611","coordinates":"28.539167, -81.383611","PER_AVG":null,"2020-21":"$136,544,492","PER AVG":12.63125,"arena":"Amway Center"},{"team":"Toronto Raptors","2019-20":null,"TM":"TOR","city":"Toronto, Ontario","latitude":"43.643333","longitude":" -79.379167","coordinates":"43.643333, -79.379167","PER_AVG":null,"2020-21":"$128,481,711","PER AVG":12.725,"arena":"Scotiabank Arena"},{"team":"Phoenix Suns","2019-20":null,"TM":"PHO","city":"Phoenix, Arizona","latitude":"33.445833","longitude":" -112.071389","coordinates":"33.445833, -112.071389","PER_AVG":null,"2020-21":"$124,614,903","PER AVG":13.0733333333,"arena":"PHX Arena"},{"team":"Los Angeles Lakers","2019-20":null,"TM":"LAL","city":"Los Angeles, California","latitude":"34.043056","longitude":" -118.267222","coordinates":"34.043056, -118.267222","PER_AVG":null,"2020-21":"$135,459,639","PER AVG":13.2125,"arena":"Staples Center"},{"team":"Portland Trail Blazers","2019-20":null,"TM":"POR","city":"Portland, Oregon","latitude":"45.531667","longitude":" -122.666667","coordinates":"45.531667, -122.666667","PER_AVG":null,"2020-21":"$128,308,277","PER AVG":13.5714285714,"arena":"Moda Center"},{"team":"Brooklyn Nets","2019-20":null,"TM":"BRK","city":"New York City, New York","latitude":"40.68265","longitude":" -73.974689","coordinates":"40.68265, -73.974689","PER_AVG":null,"2020-21":"$157,814,503","PER AVG":13.635,"arena":"Barclays Center"},{"team":"Miami Heat","2019-20":null,"TM":"MIA","city":"Miami, Florida","latitude":"25.781389","longitude":" -80.188056","coordinates":"25.781389, -80.188056","PER_AVG":null,"2020-21":"$124,604,440","PER AVG":13.7666666667,"arena":"American Airlines Arena"},{"team":"Philadelphia 76ers","2019-20":null,"TM":"PHI","city":"Philadelphia, Pennsylvania","latitude":"39.901111","longitude":" -75.171944","coordinates":"39.901111, -75.171944","PER_AVG":null,"2020-21":"$175,166,388","PER AVG":14.1214285714,"arena":"Wells Fargo Center"},{"team":"Indiana Pacers","2019-20":null,"TM":"IND","city":"Indianapolis, Indiana","latitude":"39.763889","longitude":" -86.155556","coordinates":"39.763889, -86.155556","PER_AVG":null,"2020-21":"$130,246,338","PER AVG":14.1666666667,"arena":"Bankers Life Fieldhouse"},{"team":"Milwaukee Bucks","2019-20":null,"TM":"MIL","city":"Milwaukee, Wisconsin","latitude":"43.043611","longitude":" -87.916944","coordinates":"43.043611, -87.916944","PER_AVG":null,"2020-21":"$140,306,680","PER AVG":14.2466666667,"arena":"Fiserv Forum"},{"team":"New Orleans Pelicans","2019-20":null,"TM":"NOP","city":"New Orleans, Louisiana","latitude":"29.948889","longitude":" -90.081944","coordinates":"29.948889, -90.081944","PER_AVG":null,"2020-21":"$104,760,419","PER AVG":14.5066666667,"arena":"Smoothie King Center"},{"team":"Boston Celtics","2019-20":null,"TM":"BOS","city":"Boston, Massachusetts","latitude":"42.366303","longitude":" -71.062228","coordinates":"42.366303, -71.062228","PER_AVG":null,"2020-21":"$117,111,401","PER AVG":14.6066666667,"arena":"TD Garden"},{"team":"Denver Nuggets","2019-20":null,"TM":"DEN","city":"Denver, Colorado","latitude":"39.748611","longitude":" -105.0075","coordinates":"39.748611, -105.0075","PER_AVG":null,"2020-21":"$125,885,711","PER AVG":14.86,"arena":"Ball Arena"},{"team":"Los Angeles Clippers","2019-20":null,"TM":"LAC","city":"Los Angeles, California","latitude":"34.043056","longitude":" -118.267222","coordinates":"34.043056, -118.267222","PER_AVG":null,"2020-21":"$141,490,310","PER AVG":14.8666666667,"arena":"Staples Center"},{"team":"Memphis Grizzlies","2019-20":null,"TM":"MEM","city":"Memphis, Tennessee","latitude":"35.138333","longitude":" -90.050556","coordinates":"35.138333, -90.050556","PER_AVG":null,"2020-21":"$128,519,246","PER AVG":14.9714285714,"arena":"FedExForum"},{"team":"Chicago Bulls","2019-20":null,"TM":"CHI","city":"Chicago, Illinois","latitude":"41.880556","longitude":" -87.674167","coordinates":"41.880556, -87.674167","PER_AVG":null,"2020-21":"$126,035,037","PER AVG":14.9933333333,"arena":"United Center"},{"team":"Sacramento Kings","2019-20":null,"TM":"SAC","city":"Sacramento, California","latitude":"38.649167","longitude":" -121.518056","coordinates":"38.649167, -121.518056","PER_AVG":null,"2020-21":"$112,113,931","PER AVG":15.3333333333,"arena":"Golden 1 Center"},{"team":"Dallas Mavericks","2019-20":null,"TM":"DAL","city":"Dallas, Texas","latitude":"32.790556","longitude":" -96.810278","coordinates":"32.790556, -96.810278","PER_AVG":null,"2020-21":"$126,463,122","PER AVG":15.525,"arena":"American Airlines Center"},{"team":"San Antonio Spurs","2019-20":null,"TM":"SAS","city":"San Antonio, Texas","latitude":"29.426944","longitude":" -98.4375","coordinates":"29.426944, -98.4375","PER_AVG":null,"2020-21":"$133,350,146","PER AVG":16.0466666667,"arena":"AT&T Center"}]